City_ID,City,Lat,Lng,Max Temp,Humidity,Cloudiness,Wind Speed,Country,Date
0,mhamid,29.82,-5.72,108.05,9,5,7.34,MA,Sat Aug 19 11:12:09 2023
1,san antonio de pale,-1.4014,5.6325,73.4,81,90,10.76,GQ,Sat Aug 19 11:12:10 2023
2,kenai,60.5544,-151.2583,49.08,93,0,4.61,US,Sat Aug 19 11:12:11 2023
3,kristiansund,63.1115,7.732,77.65,38,1,9.22,NO,Sat Aug 19 11:12:11 2023
4,gloucester point,37.254,-76.4969,82.29,45,0,6.91,US,Sat Aug 19 11:12:12 2023
5,beledweyne,4.7358,45.2036,91.69,27,98,10.71,SO,Sat Aug 19 11:10:38 2023
6,lihue,21.9789,-159.3672,74.79,83,75,4.61,US,Sat Aug 19 11:08:58 2023
7,robertsport,6.7533,-11.3686,79.52,80,87,9.91,LR,Sat Aug 19 11:12:13 2023
8,lebu,-37.6167,-73.65,54.57,94,100,14.16,CL,Sat Aug 19 11:12:14 2023
9,christchurch,-43.5333,172.6333,50.95,76,20,5.75,NZ,Sat Aug 19 11:12:14 2023
10,new norfolk,-42.7826,147.0587,53.92,72,99,7.58,AU,Sat Aug 19 11:12:14 2023
11,san fernando,15.0286,120.6898,80.33,86,13,3.83,PH,Sat Aug 19 11:09:57 2023
12,waitangi,-43.9535,-176.5597,52.83,95,100,1.01,NZ,Sat Aug 19 11:12:15 2023
13,wailua homesteads,22.0669,-159.378,74.19,82,75,4.61,US,Sat Aug 19 11:12:16 2023
14,constantia,44.1833,28.65,84.88,62,89,11.21,RO,Sat Aug 19 11:12:17 2023
15,sur,22.5667,59.5289,87.48,60,84,11.43,OM,Sat Aug 19 11:12:17 2023
16,port-aux-francais,-49.35,70.2167,37.35,70,100,11.63,TF,Sat Aug 19 11:12:18 2023
17,coquimbo,-29.9533,-71.3436,67.73,48,0,8.05,CL,Sat Aug 19 11:09:36 2023
18,cartagena,10.3997,-75.5144,91.02,70,40,4.61,CO,Sat Aug 19 11:12:18 2023
19,hamilton,39.1834,-84.5333,79.77,57,0,3.44,US,Sat Aug 19 11:12:19 2023
20,cabo san lucas,22.8909,-109.9124,84.51,82,100,25.32,MX,Sat Aug 19 11:12:20 2023
21,lata,40.1629,-8.3327,86.92,54,43,11.12,PT,Sat Aug 19 11:12:20 2023
22,desaguadero,-16.5656,-69.0417,50.85,11,19,4.79,PE,Sat Aug 19 11:12:21 2023
23,ulsteinvik,62.3432,5.8487,77.99,55,37,4.0,NO,Sat Aug 19 11:12:21 2023
24,magadan,59.5667,150.8,60.53,89,100,3.44,RU,Sat Aug 19 11:12:22 2023
25,iqaluit,63.7506,-68.5145,49.73,93,40,4.61,CA,Sat Aug 19 11:12:22 2023
26,guasdualito,7.2424,-70.7324,86.31,73,81,3.11,VE,Sat Aug 19 11:12:23 2023
27,saint-philippe,-21.3585,55.7679,71.19,81,53,2.51,RE,Sat Aug 19 11:12:23 2023
28,apolinario saravia,-24.4328,-63.9954,72.28,40,1,10.11,AR,Sat Aug 19 11:12:23 2023
29,bilibino,68.0546,166.4372,35.53,84,97,3.65,RU,Sat Aug 19 11:12:24 2023
30,xinshi,31.047,113.141,78.57,71,91,6.76,CN,Sat Aug 19 11:12:24 2023
31,udaipura,23.0833,78.5,76.98,95,100,5.35,IN,Sat Aug 19 11:08:23 2023
32,kota,25.1833,75.8333,84.43,70,100,5.84,IN,Sat Aug 19 11:12:25 2023
33,grytviken,-54.2811,-36.5092,25.47,71,4,7.02,GS,Sat Aug 19 11:12:26 2023
34,leava,-14.3,-178.1667,80.85,72,53,15.93,WF,Sat Aug 19 11:12:26 2023
35,njombe,-9.3333,34.7667,60.06,56,32,6.24,TZ,Sat Aug 19 11:12:27 2023
36,college,64.8569,-147.8028,55.08,87,100,8.05,US,Sat Aug 19 11:12:28 2023
37,nova sintra,14.8667,-24.7167,76.32,81,43,14.0,CV,Sat Aug 19 11:12:29 2023
38,broken hill,-31.95,141.4333,51.21,87,0,8.39,AU,Sat Aug 19 11:12:29 2023
39,port mathurin,-19.6833,63.4167,73.6,74,2,15.73,MU,Sat Aug 19 11:12:29 2023
40,vila velha,-20.3297,-40.2925,85.95,48,20,16.11,BR,Sat Aug 19 11:10:13 2023
41,egilsstadir,65.2653,-14.3948,57.11,72,75,11.5,IS,Sat Aug 19 11:12:30 2023
42,tiksi,71.6872,128.8694,37.4,87,71,9.44,RU,Sat Aug 19 11:12:30 2023
43,edinburgh of the seven seas,-37.0676,-12.3116,50.61,66,100,38.63,SH,Sat Aug 19 11:12:31 2023
44,aasiaat,68.7098,-52.8699,39.88,80,100,14.38,GL,Sat Aug 19 11:12:31 2023
45,atafu village,-8.5421,-172.5159,82.17,78,58,14.7,TK,Sat Aug 19 11:12:32 2023
46,lillehammer,61.1146,10.4674,65.39,62,99,4.52,NO,Sat Aug 19 11:12:32 2023
47,igrim,63.1906,64.4162,54.1,54,64,9.55,RU,Sat Aug 19 11:12:33 2023
48,port lincoln,-34.7333,135.8667,56.46,83,97,8.3,AU,Sat Aug 19 11:12:33 2023
49,el granada,37.5027,-122.4694,71.44,86,100,5.75,US,Sat Aug 19 11:12:34 2023
50,alofi,-19.0595,-169.9187,75.47,82,98,15.79,NU,Sat Aug 19 11:12:35 2023
51,praia,14.9215,-23.5087,86.54,70,75,17.27,CV,Sat Aug 19 11:12:35 2023
52,santo andre,-23.6639,-46.5383,80.13,41,0,16.11,BR,Sat Aug 19 11:12:36 2023
53,san jose del guaviare,2.5729,-72.6459,84.76,77,61,0.22,CO,Sat Aug 19 11:12:37 2023
54,itapecuru mirim,-3.3925,-44.3586,98.26,30,9,5.41,BR,Sat Aug 19 11:08:49 2023
55,imbituba,-28.24,-48.6703,66.85,65,96,13.11,BR,Sat Aug 19 11:12:38 2023
56,ilulissat,69.2167,-51.1,55.42,41,75,25.32,GL,Sat Aug 19 11:12:38 2023
57,iskateley,67.6803,53.1512,47.82,71,80,14.09,RU,Sat Aug 19 11:12:39 2023
58,west island,-12.1568,96.8225,76.98,69,40,18.41,CC,Sat Aug 19 11:11:00 2023
59,stanley,54.868,-1.6985,69.78,69,75,14.97,GB,Sat Aug 19 11:12:20 2023
60,hawaiian paradise park,19.5933,-154.9731,72.03,94,40,4.61,US,Sat Aug 19 11:12:39 2023
61,adelia maria,-33.6315,-64.021,61.65,34,100,7.0,AR,Sat Aug 19 11:12:40 2023
62,koz'modem'yansk,56.3367,46.5711,65.59,62,66,6.89,RU,Sat Aug 19 11:12:40 2023
63,sitka,57.0531,-135.33,55.29,88,100,0.0,US,Sat Aug 19 11:12:41 2023
64,ushuaia,-54.8,-68.3,42.42,97,100,5.64,AR,Sat Aug 19 11:12:41 2023
65,portland,45.5234,-122.6762,65.08,72,0,6.91,US,Sat Aug 19 11:09:33 2023
66,kavieng,-2.5744,150.7967,80.51,83,100,13.73,PG,Sat Aug 19 11:12:42 2023
67,saint-pierre,-21.3393,55.4781,71.28,78,0,4.61,RE,Sat Aug 19 11:12:42 2023
68,happy valley-goose bay,53.3168,-60.3315,68.31,68,100,6.91,CA,Sat Aug 19 11:12:42 2023
69,olonkinbyen,70.9221,-8.7187,44.11,98,100,11.36,SJ,Sat Aug 19 11:12:43 2023
70,ribeira grande,38.5167,-28.7,79.2,61,20,9.22,PT,Sat Aug 19 11:12:43 2023
71,krasnoarmeysk,51.0239,45.6969,84.67,24,44,3.87,RU,Sat Aug 19 11:12:43 2023
72,avarua,-21.2078,-159.775,71.65,78,100,6.91,CK,Sat Aug 19 11:12:44 2023
73,whitehorse,60.7161,-135.0538,49.1,71,41,3.09,CA,Sat Aug 19 11:12:45 2023
74,adamstown,-25.066,-130.1015,61.77,56,71,18.72,PN,Sat Aug 19 11:12:45 2023
75,opuwo,-18.0607,13.84,86.86,11,13,8.63,NA,Sat Aug 19 11:12:46 2023
76,sinabang,2.4803,96.3801,79.38,84,88,3.36,ID,Sat Aug 19 11:12:46 2023
77,rock springs,41.5875,-109.2029,76.23,48,20,3.44,US,Sat Aug 19 11:12:46 2023
78,hermanus,-34.4187,19.2345,59.81,81,0,14.79,ZA,Sat Aug 19 11:12:47 2023
79,invercargill,-46.4,168.35,50.02,75,27,8.01,NZ,Sat Aug 19 11:12:47 2023
80,petropavlovsk-kamchatsky,53.0452,158.6483,55.78,93,33,10.36,RU,Sat Aug 19 11:12:48 2023
81,saipan,15.1355,145.701,81.3,100,100,1.01,MP,Sat Aug 19 11:12:49 2023
82,al qadarif,14.0349,35.3834,87.04,56,29,6.78,SD,Sat Aug 19 11:12:49 2023
83,margaret river,-33.95,115.0667,57.43,70,100,8.66,AU,Sat Aug 19 11:12:50 2023
84,haiku-pauwela,20.9219,-156.3051,74.25,81,40,10.0,US,Sat Aug 19 11:12:50 2023
85,blackmans bay,-43.0167,147.3167,52.74,71,75,8.77,AU,Sat Aug 19 11:12:51 2023
86,brookings,44.3114,-96.7984,82.74,73,0,0.0,US,Sat Aug 19 11:10:31 2023
87,kenitra,34.261,-6.5802,84.96,42,66,12.8,MA,Sat Aug 19 11:12:52 2023
88,motygino,58.1831,94.7592,55.17,71,100,3.33,RU,Sat Aug 19 11:12:52 2023
89,dryden,49.7833,-92.7503,71.89,73,75,11.5,CA,Sat Aug 19 11:12:53 2023
90,strelka,58.0728,93.0344,50.85,91,100,2.51,RU,Sat Aug 19 11:12:54 2023
91,dwarka,22.2394,68.9678,80.06,80,100,16.26,IN,Sat Aug 19 11:12:55 2023
92,luau,-10.7073,22.2247,89.94,14,8,3.91,AO,Sat Aug 19 11:12:55 2023
93,tsuma,32.1,131.4,77.14,95,78,2.86,JP,Sat Aug 19 11:12:56 2023
94,bredasdorp,-34.5322,20.0403,55.94,80,1,5.03,ZA,Sat Aug 19 11:12:57 2023
95,sosnovka,56.255,51.2842,60.26,63,38,5.1,RU,Sat Aug 19 11:12:58 2023
96,lazaro cardenas,17.9583,-102.2,87.69,58,100,2.15,MX,Sat Aug 19 11:12:58 2023
97,plastun,44.7561,136.2939,68.7,95,50,5.7,RU,Sat Aug 19 11:12:59 2023
98,albany,42.6001,-73.9662,69.67,71,96,1.99,US,Sat Aug 19 11:01:27 2023
99,carapegua,-25.8,-57.2333,72.91,44,4,3.98,PY,Sat Aug 19 11:13:00 2023
100,porto novo,6.4965,2.6036,77.43,88,100,6.22,BJ,Sat Aug 19 11:13:00 2023
101,holualoa,19.6228,-155.9522,73.24,75,20,9.22,US,Sat Aug 19 11:13:00 2023
102,hotan,37.0997,79.9269,85.17,16,3,5.75,CN,Sat Aug 19 11:13:00 2023
103,carutapera,-1.195,-46.02,88.27,57,20,12.44,BR,Sat Aug 19 11:13:01 2023
104,eyl,7.9803,49.8164,78.84,75,98,21.43,SO,Sat Aug 19 11:13:02 2023
105,sant carles de la rapita,40.6167,0.6,92.37,70,65,6.82,ES,Sat Aug 19 11:13:03 2023
106,strezhevoy,60.7333,77.5889,58.69,62,78,5.66,RU,Sat Aug 19 11:13:04 2023
107,eureka,40.8021,-124.1637,56.01,76,0,3.69,US,Sat Aug 19 11:08:27 2023
108,mao,39.8885,4.2658,84.76,74,20,6.91,ES,Sat Aug 19 11:13:05 2023
109,flin flon,54.7682,-101.865,57.04,88,100,9.22,CA,Sat Aug 19 11:13:06 2023
110,kalevala,65.2,31.1667,56.23,73,96,6.91,RU,Sat Aug 19 11:13:07 2023
111,tshabong,-26.05,22.45,72.72,8,100,17.36,BW,Sat Aug 19 11:13:08 2023
112,kosh-agach,50.0,88.6667,45.61,76,79,5.32,RU,Sat Aug 19 11:13:08 2023
113,castillos,-34.1667,-53.8333,55.36,42,4,19.15,UY,Sat Aug 19 11:13:09 2023
114,utrik,11.2278,169.8474,84.13,74,53,18.41,MH,Sat Aug 19 11:13:11 2023
115,kailua-kona,19.6406,-155.9956,76.96,75,20,9.22,US,Sat Aug 19 11:13:15 2023
116,port elizabeth,-33.918,25.5701,62.89,77,0,13.8,ZA,Sat Aug 19 11:13:16 2023
117,malayer,34.2969,48.8235,76.19,28,58,6.69,IR,Sat Aug 19 11:13:17 2023
118,praia da vitoria,38.7333,-27.0667,80.85,65,40,3.44,PT,Sat Aug 19 11:13:18 2023
119,yelan',50.949,43.7378,86.61,25,70,8.93,RU,Sat Aug 19 11:13:18 2023
120,mar del plata,-38.0023,-57.5575,50.09,72,69,28.99,AR,Sat Aug 19 11:10:02 2023
121,puerto natales,-51.7236,-72.4875,30.65,100,100,1.14,CL,Sat Aug 19 11:13:20 2023
122,chilliwack,49.1747,-121.9443,70.16,49,7,11.5,CA,Sat Aug 19 11:13:20 2023
123,kodiak,57.79,-152.4072,53.11,76,100,8.05,US,Sat Aug 19 11:13:21 2023
124,kingston,17.997,-76.7936,93.24,63,5,1.99,JM,Sat Aug 19 11:11:14 2023
125,thompson,55.7435,-97.8558,58.62,51,97,10.96,CA,Sat Aug 19 11:08:31 2023
126,antsiranana,-12.2787,49.2917,74.82,81,1,15.03,MG,Sat Aug 19 11:13:23 2023
127,cidreira,-30.1811,-50.2056,61.83,43,16,11.92,BR,Sat Aug 19 11:13:24 2023
128,quiberon,47.4841,-3.1196,74.1,80,2,9.48,FR,Sat Aug 19 11:13:24 2023
129,chonchi,-42.6128,-73.8092,47.12,97,100,4.65,CL,Sat Aug 19 11:13:25 2023
130,celestun,20.8667,-90.4,85.75,66,100,4.21,MX,Sat Aug 19 11:13:26 2023
131,kidal,18.4411,1.4078,103.66,17,13,3.47,ML,Sat Aug 19 11:13:26 2023
132,bandar-e genaveh,29.5791,50.517,94.71,61,0,4.25,IR,Sat Aug 19 11:13:26 2023
133,saldanha,-33.0117,17.9442,56.61,89,0,6.06,ZA,Sat Aug 19 11:09:05 2023
134,sungai raya,0.7,108.9,80.62,79,100,6.69,ID,Sat Aug 19 11:13:27 2023
135,alenquer,-1.9417,-54.7383,97.36,32,94,6.64,BR,Sat Aug 19 11:13:28 2023
136,lalibela,12.0333,39.0333,64.76,70,85,3.11,ET,Sat Aug 19 11:13:28 2023
137,vila franca do campo,37.7167,-25.4333,77.41,60,29,3.47,PT,Sat Aug 19 11:13:29 2023
138,longyearbyen,78.2186,15.6401,46.24,71,40,3.44,SJ,Sat Aug 19 11:13:29 2023
139,isafjordur,66.0755,-23.124,53.64,62,0,20.71,IS,Sat Aug 19 11:13:30 2023
140,sake,-1.5736,29.045,70.43,64,94,0.63,CD,Sat Aug 19 11:13:31 2023
141,bapatla,15.9,80.4667,82.98,71,96,15.35,IN,Sat Aug 19 11:13:31 2023
142,port alfred,-33.5906,26.891,62.19,83,33,3.0,ZA,Sat Aug 19 11:13:31 2023
143,qaqortoq,60.7167,-46.0333,48.22,74,8,4.34,GL,Sat Aug 19 11:13:32 2023
144,papatowai,-46.5619,169.4708,45.41,82,90,6.51,NZ,Sat Aug 19 11:13:32 2023
145,lautoka,-17.6167,177.4667,71.46,88,20,3.44,FJ,Sat Aug 19 11:13:33 2023
146,jiuquan,39.7432,98.5174,76.84,17,19,9.37,CN,Sat Aug 19 11:13:33 2023
147,sao gabriel da cachoeira,-0.1303,-67.0892,92.84,50,81,3.74,BR,Sat Aug 19 11:13:34 2023
148,kapa'a,22.0752,-159.319,75.52,82,75,4.61,US,Sat Aug 19 11:13:34 2023
149,lompoc,34.6391,-120.4579,66.0,75,75,3.44,US,Sat Aug 19 11:11:13 2023
150,aldinga beach,-35.2793,138.4604,57.2,90,86,10.54,AU,Sat Aug 19 11:13:35 2023
151,rongelap,11.1635,166.8941,82.92,80,55,17.78,MH,Sat Aug 19 11:13:35 2023
152,vikulovo,56.8167,70.6107,62.58,83,49,14.52,RU,Sat Aug 19 11:13:36 2023
153,kavaratti,10.5669,72.642,82.85,74,97,16.64,IN,Sat Aug 19 11:13:36 2023
154,tolanaro,-25.0319,46.9987,68.09,84,6,6.15,MG,Sat Aug 19 11:13:37 2023
155,carnot,4.9409,15.8665,75.99,90,100,1.88,CF,Sat Aug 19 11:13:37 2023
156,inirida,3.8653,-67.9239,89.37,65,82,2.91,CO,Sat Aug 19 11:13:37 2023
157,dalaman,36.7659,28.8028,84.06,79,20,10.36,TR,Sat Aug 19 11:13:38 2023
158,mitu,1.1983,-70.1733,92.66,51,72,2.42,CO,Sat Aug 19 11:13:38 2023
159,bethel,41.3712,-73.414,74.21,63,75,12.66,US,Sat Aug 19 11:09:03 2023
160,sanya,18.2431,109.505,84.36,74,20,4.47,CN,Sat Aug 19 11:13:39 2023
161,hithadhoo,-0.6,73.0833,81.63,77,2,7.94,MV,Sat Aug 19 11:13:39 2023
162,ust-nera,64.5667,143.2,48.02,86,98,8.9,RU,Sat Aug 19 11:13:40 2023
163,zhuanghe,39.7008,122.9911,75.69,90,77,0.25,CN,Sat Aug 19 11:13:40 2023
164,aykhal,66.0,111.5,47.66,61,6,10.07,RU,Sat Aug 19 11:13:41 2023
165,ulanhot,46.0833,122.0833,60.82,82,1,6.67,CN,Sat Aug 19 11:13:42 2023
166,polyarnyy,69.1989,33.4478,49.12,71,77,17.94,RU,Sat Aug 19 11:13:42 2023
167,kunwi,36.2347,128.5728,79.9,97,10,0.69,KR,Sat Aug 19 11:13:42 2023
168,pacific grove,36.6177,-121.9166,63.66,89,100,1.99,US,Sat Aug 19 11:13:43 2023
169,bardai,11.65,7.2333,81.79,67,90,9.26,NG,Sat Aug 19 11:13:43 2023
170,yellowknife,62.456,-114.3525,57.72,82,75,11.5,CA,Sat Aug 19 11:13:43 2023
171,lusambo,-4.9667,23.45,83.07,57,98,8.03,CD,Sat Aug 19 11:13:44 2023
172,san juan,-31.5375,-68.5364,64.4,31,17,7.23,AR,Sat Aug 19 11:13:44 2023
173,udachny,66.4167,112.4,48.45,75,7,9.46,RU,Sat Aug 19 11:13:44 2023
174,taroudant,30.4703,-8.877,113.25,8,78,11.45,MA,Sat Aug 19 11:13:45 2023
175,anadyr,64.75,177.4833,37.0,87,0,6.71,RU,Sat Aug 19 11:13:45 2023
176,margate,51.3813,1.3862,74.7,59,0,8.01,GB,Sat Aug 19 11:13:45 2023
177,nema,57.5067,50.5011,57.94,56,22,6.26,RU,Sat Aug 19 11:13:46 2023
178,saint-leu,-21.15,55.2833,70.66,97,18,1.34,RE,Sat Aug 19 11:13:46 2023
179,sodra sandby,56.5667,16.6167,64.26,96,44,11.77,SE,Sat Aug 19 11:13:46 2023
180,san ignacio de velasco,-16.3667,-60.95,88.38,37,37,5.12,BO,Sat Aug 19 11:13:47 2023
181,dalbandin,28.8947,64.4101,92.7,6,28,6.29,PK,Sat Aug 19 11:13:48 2023
182,uturoa,-16.7333,-151.4333,77.45,73,17,14.67,PF,Sat Aug 19 11:13:48 2023
183,nadym,65.5333,72.5167,48.25,93,100,24.14,RU,Sat Aug 19 11:13:49 2023
184,machico,32.7,-16.7667,87.71,68,20,19.57,PT,Sat Aug 19 11:13:50 2023
185,alo,7.4178,6.7371,80.94,84,100,2.93,NG,Sat Aug 19 11:13:50 2023
186,mizdah,31.4451,12.9801,97.59,15,1,13.04,LY,Sat Aug 19 11:09:51 2023
187,kruisfontein,-34.0033,24.7314,59.88,81,78,12.19,ZA,Sat Aug 19 11:13:51 2023
188,keflavik,64.0049,-22.5624,58.91,77,75,9.22,IS,Sat Aug 19 11:13:51 2023
189,tandil,-37.3217,-59.1332,46.69,52,41,25.39,AR,Sat Aug 19 11:09:13 2023
190,puerto ayacucho,5.6639,-67.6236,88.29,65,93,2.17,VE,Sat Aug 19 11:13:52 2023
191,scarborough,54.2797,-0.4044,74.16,62,38,7.0,GB,Sat Aug 19 11:09:45 2023
192,safaga,26.7292,33.9365,95.11,46,0,15.75,EG,Sat Aug 19 11:13:52 2023
193,talnakh,69.4865,88.3972,58.21,86,100,6.31,RU,Sat Aug 19 11:13:52 2023
194,acarau,-2.8856,-40.12,87.42,60,42,19.28,BR,Sat Aug 19 11:13:53 2023
195,dudinka,69.4058,86.1778,58.62,81,100,7.83,RU,Sat Aug 19 11:13:53 2023
196,ipilan,8.8431,117.9033,79.0,82,99,6.64,PH,Sat Aug 19 11:13:53 2023
197,hilo,19.7297,-155.09,72.25,86,40,4.61,US,Sat Aug 19 11:13:54 2023
198,souillac,-20.5167,57.5167,71.98,83,20,2.3,MU,Sat Aug 19 11:13:54 2023
199,palikir - national government center,6.9248,158.1611,75.94,88,40,2.3,FM,Sat Aug 19 11:13:54 2023
200,cidade velha,14.9167,-23.6167,86.47,70,75,17.27,CV,Sat Aug 19 11:13:55 2023
201,chibougamau,49.9168,-74.3659,64.02,94,100,12.66,CA,Sat Aug 19 11:13:55 2023
202,arraial do cabo,-22.9661,-42.0278,84.06,61,0,9.22,BR,Sat Aug 19 11:13:55 2023
203,kerikeri,-35.2268,173.9474,53.91,95,100,8.25,NZ,Sat Aug 19 11:09:03 2023
204,kachug,53.9606,105.8817,49.51,89,100,4.7,RU,Sat Aug 19 11:13:56 2023
205,nemuro,43.3236,145.575,65.37,100,100,6.89,JP,Sat Aug 19 11:13:56 2023
206,winburg,-28.518,27.0093,72.46,15,86,18.68,ZA,Sat Aug 19 11:13:56 2023
207,rabo de peixe,37.8,-25.5833,76.51,69,20,6.91,PT,Sat Aug 19 11:13:57 2023
208,gakem,6.7658,8.9881,80.17,82,97,9.57,NG,Sat Aug 19 11:13:58 2023
209,mo i rana,66.3128,14.1428,75.67,64,0,3.44,NO,Sat Aug 19 11:11:47 2023
210,nar'yan-mar,67.6713,53.087,47.86,72,83,14.16,RU,Sat Aug 19 11:13:59 2023
211,strabane,54.8237,-7.4692,71.55,75,59,14.54,GB,Sat Aug 19 11:13:59 2023
212,rio grande,-32.035,-52.0986,64.51,40,1,16.73,BR,Sat Aug 19 11:13:59 2023
213,nouadhibou,20.931,-17.0347,89.58,58,32,12.66,MR,Sat Aug 19 11:14:00 2023
214,geneina,13.45,22.45,73.24,69,100,24.2,SD,Sat Aug 19 11:09:41 2023
215,pisco,-13.7,-76.2167,71.65,56,75,6.91,PE,Sat Aug 19 11:14:01 2023
216,road town,18.4167,-64.6167,91.49,70,75,12.66,VG,Sat Aug 19 11:14:01 2023
217,abqaiq,25.9371,49.6776,95.29,41,1,9.13,SA,Sat Aug 19 11:14:02 2023
218,concordia,-31.393,-58.0209,58.78,66,81,11.99,AR,Sat Aug 19 11:11:20 2023
219,pitimbu,-7.4706,-34.8086,77.59,80,72,12.55,BR,Sat Aug 19 11:14:03 2023
220,punta arenas,-53.15,-70.9167,37.51,87,40,8.05,CL,Sat Aug 19 11:13:51 2023
221,luanda,-8.8368,13.2343,71.6,78,0,9.22,AO,Sat Aug 19 11:14:04 2023
222,mrakovo,52.7161,56.6244,76.48,47,66,7.96,RU,Sat Aug 19 11:14:05 2023
223,sungai penuh,-2.0833,101.3833,65.43,99,100,1.48,ID,Sat Aug 19 11:14:07 2023
224,neelankarai,12.9455,80.2575,82.45,83,75,2.3,IN,Sat Aug 19 11:14:08 2023
225,kulhudhuffushi,6.6221,73.07,82.58,76,91,13.58,MV,Sat Aug 19 11:14:08 2023
226,touros,-5.1989,-35.4608,83.93,62,23,13.8,BR,Sat Aug 19 11:14:08 2023
227,buka,40.8108,69.1986,80.49,16,0,9.13,UZ,Sat Aug 19 11:14:09 2023
228,tazovsky,67.4667,78.7,54.07,59,98,6.96,RU,Sat Aug 19 11:14:10 2023
229,gornozavodsk,58.3758,58.3211,52.9,66,1,5.3,RU,Sat Aug 19 11:14:11 2023
230,eforie sud,44.0229,28.6494,83.21,63,90,12.33,RO,Sat Aug 19 11:14:12 2023
231,chipinge,-20.1883,32.6236,68.07,39,0,6.6,ZW,Sat Aug 19 11:14:12 2023
232,youghal,51.95,-7.8506,62.55,99,67,20.18,IE,Sat Aug 19 11:14:13 2023
233,khamis mushait,18.3064,42.7292,72.64,56,40,4.61,SA,Sat Aug 19 11:14:13 2023
234,puerto ayora,-0.7393,-90.3518,80.56,80,16,7.0,EC,Sat Aug 19 11:14:14 2023
235,levuka,50.1834,-105.4011,55.22,56,23,19.51,CA,Sat Aug 19 11:14:14 2023
236,kushiro,42.975,144.3747,68.83,100,100,0.63,JP,Sat Aug 19 11:14:14 2023
237,howard springs,-12.497,131.047,74.82,82,43,5.46,AU,Sat Aug 19 11:14:15 2023
238,lesosibirsk,58.2358,92.4828,50.65,91,100,2.46,RU,Sat Aug 19 11:14:15 2023
239,namtsy,62.7161,129.6658,57.31,79,100,8.61,RU,Sat Aug 19 11:14:16 2023
240,pervomayskoye,43.919,46.7102,83.28,33,50,7.65,RU,Sat Aug 19 11:14:16 2023
241,tamanrasset,22.785,5.5228,93.11,16,40,4.61,DZ,Sat Aug 19 11:14:17 2023
242,ocean city,39.2776,-74.5746,78.19,51,0,3.0,US,Sat Aug 19 11:10:42 2023
243,north lakhimpur,27.2333,94.1167,78.24,94,100,4.03,IN,Sat Aug 19 11:14:21 2023
244,berwick-upon-tweed,55.7833,-2.0,70.03,74,29,19.48,GB,Sat Aug 19 11:14:21 2023
245,pirallahi,40.4723,50.333,82.54,66,12,8.57,AZ,Sat Aug 19 11:14:22 2023
246,puerto san jose,13.9256,-90.8244,85.24,60,92,3.22,GT,Sat Aug 19 11:14:22 2023
247,ca mau,9.1769,105.15,80.28,85,95,6.6,VN,Sat Aug 19 11:14:22 2023
248,nantucket,41.2835,-70.0995,75.09,64,0,18.41,US,Sat Aug 19 11:13:15 2023
249,georgetown,5.4112,100.3354,82.33,83,20,2.3,MY,Sat Aug 19 11:08:28 2023
250,moroni,-11.7022,43.2551,76.86,80,6,7.09,KM,Sat Aug 19 11:14:25 2023
251,hasaki,35.7333,140.8333,80.31,88,0,1.28,JP,Sat Aug 19 11:14:25 2023
252,raja,8.4596,25.678,82.02,74,27,3.89,SS,Sat Aug 19 11:14:26 2023
253,eastham,41.8301,-69.9739,77.59,67,0,12.66,US,Sat Aug 19 11:14:27 2023
254,sao borja,-28.6606,-56.0044,65.95,39,18,6.42,BR,Sat Aug 19 11:14:27 2023
255,al burayqah,30.4062,19.5739,82.13,70,0,16.64,LY,Sat Aug 19 11:14:27 2023
256,mehrhoog,51.7333,6.5167,77.32,70,100,4.72,DE,Sat Aug 19 11:14:28 2023
257,fale old settlement,-9.3852,-171.2468,82.96,77,93,18.45,TK,Sat Aug 19 11:14:28 2023
258,jawf al maqbabah,13.8378,45.8349,84.29,56,70,9.37,YE,Sat Aug 19 11:14:28 2023
259,burghaun,50.6968,9.7245,85.17,59,58,4.47,DE,Sat Aug 19 11:14:29 2023
260,acapulco de juarez,16.8634,-99.8901,85.82,66,0,3.44,MX,Sat Aug 19 11:14:29 2023
261,kogalym,62.2654,74.4791,52.05,79,100,19.19,RU,Sat Aug 19 11:14:30 2023
262,jamestown,42.097,-79.2353,73.02,50,20,12.66,US,Sat Aug 19 11:09:44 2023
263,nuuk,64.1835,-51.7216,45.21,87,75,18.99,GL,Sat Aug 19 11:14:30 2023
264,badger,64.8,-147.5333,54.99,86,100,8.05,US,Sat Aug 19 11:14:31 2023
265,kone,-21.0595,164.8658,62.71,87,18,1.99,NC,Sat Aug 19 11:14:31 2023
266,susuman,62.7833,148.1667,44.64,88,100,4.92,RU,Sat Aug 19 11:14:32 2023
267,at taj,24.2049,23.2857,99.68,11,0,10.63,LY,Sat Aug 19 11:14:32 2023
268,ambodifotatra,-16.9833,49.85,74.48,75,0,6.31,MG,Sat Aug 19 11:14:32 2023
269,yelizovo,53.1873,158.3805,57.34,93,0,8.99,RU,Sat Aug 19 11:14:33 2023
270,laascaanood,8.4774,47.3597,87.78,30,81,16.31,SO,Sat Aug 19 11:14:33 2023
271,pali,25.7667,73.3333,88.77,55,70,11.39,IN,Sat Aug 19 11:14:33 2023
272,mahina,-17.5065,-149.489,74.97,73,20,14.97,PF,Sat Aug 19 11:10:26 2023
273,essex,40.7834,-74.2163,76.35,54,40,12.66,US,Sat Aug 19 11:09:44 2023
274,nioki,-2.7167,17.6833,89.15,44,93,5.23,CD,Sat Aug 19 11:14:34 2023
275,tara,56.8944,74.371,63.39,97,91,7.76,RU,Sat Aug 19 11:14:36 2023
276,colonia,50.9333,6.95,80.96,74,0,5.75,DE,Sat Aug 19 11:13:20 2023
277,tralee,52.2704,-9.7026,66.45,77,75,18.41,IE,Sat Aug 19 11:14:36 2023
278,wynyard,-41.0,145.7167,51.96,80,77,12.35,AU,Sat Aug 19 11:14:37 2023
279,mount pearl,47.5166,-52.7813,62.46,90,75,24.16,CA,Sat Aug 19 11:14:37 2023
280,la ronge,55.1001,-105.2842,57.42,72,75,10.36,CA,Sat Aug 19 11:14:37 2023
281,klaksvik,62.2266,-6.589,61.72,95,80,27.02,FO,Sat Aug 19 11:14:38 2023
282,toamasina,-18.1667,49.3833,71.1,86,0,7.47,MG,Sat Aug 19 11:14:38 2023
283,fortuna,40.5982,-124.1573,57.65,98,100,0.0,US,Sat Aug 19 11:14:38 2023
284,karratha,-20.7377,116.8463,74.59,34,0,4.99,AU,Sat Aug 19 11:14:38 2023
285,neiafu,-18.65,-173.9833,75.88,94,75,9.22,TO,Sat Aug 19 11:14:39 2023
286,bontang,0.1333,117.5,78.84,82,78,6.69,ID,Sat Aug 19 11:14:39 2023
287,kamennogorsk,60.9545,29.1339,63.52,79,100,3.69,RU,Sat Aug 19 11:14:39 2023
288,cururupu,-1.8283,-44.8683,84.09,70,84,8.61,BR,Sat Aug 19 11:14:40 2023
289,haifa,32.8156,34.9892,86.22,71,40,10.36,IL,Sat Aug 19 11:14:40 2023
290,hashtrud,37.4779,47.0508,72.09,41,47,10.38,IR,Sat Aug 19 11:14:41 2023
291,soanierana ivongo,-16.9167,49.5833,69.78,90,1,2.77,MG,Sat Aug 19 11:14:41 2023
292,tayu,-6.5397,111.0518,78.82,82,76,11.56,ID,Sat Aug 19 11:14:41 2023
293,alaghsas,17.0187,8.0168,105.69,17,0,11.5,NE,Sat Aug 19 11:14:42 2023
294,hadibu,12.65,54.0333,79.14,81,85,13.44,YE,Sat Aug 19 11:14:42 2023
295,mount gambier,-37.8333,140.7667,53.47,87,100,7.49,AU,Sat Aug 19 11:14:42 2023
296,egersund,58.4513,5.9997,67.08,86,100,28.43,NO,Sat Aug 19 11:14:43 2023
297,klyuchi,52.2667,79.1667,66.0,62,38,9.08,RU,Sat Aug 19 11:14:43 2023
298,andergrove,-21.0833,149.1833,50.65,48,43,11.03,AU,Sat Aug 19 11:14:43 2023
299,mascote,-15.5631,-39.3025,86.04,43,27,7.43,BR,Sat Aug 19 11:12:57 2023
300,smithers,54.7804,-127.1743,48.52,76,0,2.3,CA,Sat Aug 19 11:14:44 2023
301,namibe,-15.1961,12.1522,67.82,65,61,8.25,AO,Sat Aug 19 11:14:44 2023
302,linxia chengguanzhen,35.6003,103.2064,56.37,86,95,1.03,CN,Sat Aug 19 11:14:44 2023
303,bubaque,11.2833,-15.8333,80.56,81,100,7.61,GW,Sat Aug 19 11:14:45 2023
304,kolonia town,6.964,158.206,77.0,88,40,2.3,FM,Sat Aug 19 11:14:45 2023
305,conceicao da barra,-18.5933,-39.7322,82.65,59,21,12.93,BR,Sat Aug 19 11:14:45 2023
306,thenia,36.7254,3.5567,88.09,40,12,7.07,DZ,Sat Aug 19 11:14:45 2023
307,yuzhno-kurilsk,44.0306,145.8556,65.97,99,100,5.23,RU,Sat Aug 19 11:14:46 2023
308,tromso,69.6496,18.957,55.42,62,0,12.66,NO,Sat Aug 19 11:14:46 2023
309,tazacorte,28.629,-17.9293,79.77,74,20,12.66,ES,Sat Aug 19 11:14:46 2023
310,campbell river,50.0163,-125.2446,65.73,72,20,10.36,CA,Sat Aug 19 11:14:47 2023
311,arkhangel'sk,64.5401,40.5433,53.42,76,99,5.21,RU,Sat Aug 19 11:14:47 2023
312,varzea da palma,-17.5981,-44.7308,91.29,27,4,5.14,BR,Sat Aug 19 11:14:47 2023
313,rottach-egern,47.7,11.7667,88.43,54,13,3.44,DE,Sat Aug 19 11:14:47 2023
314,paoua,7.2427,16.4406,74.68,93,99,2.24,CF,Sat Aug 19 11:14:48 2023
315,mithi,24.7318,69.7981,89.24,52,36,18.19,PK,Sat Aug 19 11:14:48 2023
316,aral,40.5156,81.2636,86.22,18,0,12.3,CN,Sat Aug 19 11:14:48 2023
317,urangan,-25.3,152.9,55.83,47,0,10.76,AU,Sat Aug 19 11:14:48 2023
318,mata-utu,-13.2816,-176.1745,81.41,81,20,16.37,WF,Sat Aug 19 11:14:49 2023
319,port douglas,-16.4833,145.4667,66.43,63,100,6.82,AU,Sat Aug 19 11:14:49 2023
320,akureyri,65.6835,-18.0878,69.73,46,20,3.44,IS,Sat Aug 19 11:14:49 2023
321,leninskoye,41.7589,69.3864,81.0,19,0,11.63,KZ,Sat Aug 19 11:14:49 2023
322,lerwick,60.1545,-1.1494,60.8,97,100,25.93,GB,Sat Aug 19 11:14:50 2023
323,murzuq,25.9155,13.9184,99.9,14,0,10.4,LY,Sat Aug 19 11:14:50 2023
324,xilin hot,43.9667,116.0333,63.45,32,3,7.9,CN,Sat Aug 19 11:14:50 2023
325,jalarpet,12.5667,78.5833,83.43,53,100,14.45,IN,Sat Aug 19 11:14:50 2023
326,north shore,-36.8,174.75,57.4,83,100,1.01,NZ,Sat Aug 19 11:12:57 2023
327,cannonvale,-20.2833,148.7,67.39,57,2,9.55,AU,Sat Aug 19 11:14:51 2023
328,queenstown,-31.8976,26.8753,58.8,22,23,4.18,ZA,Sat Aug 19 11:14:51 2023
329,tingi,-11.3,35.0333,67.68,45,2,3.11,TZ,Sat Aug 19 11:14:51 2023
330,vorgashor,67.5833,63.95,42.46,85,58,6.82,RU,Sat Aug 19 11:14:52 2023
331,harstad,68.799,16.5293,61.81,83,69,8.01,NO,Sat Aug 19 11:14:52 2023
332,nova xavantina,-14.6667,-52.35,100.09,17,14,5.79,BR,Sat Aug 19 11:14:52 2023
333,george town,5.4112,100.3354,84.15,81,20,4.61,MY,Sat Aug 19 11:14:52 2023
334,oranjemund,-28.55,16.4333,57.18,75,0,6.82,NA,Sat Aug 19 11:14:53 2023
335,nazarabad,35.9521,50.6075,86.81,25,44,8.39,IR,Sat Aug 19 11:14:53 2023
336,lekeitio,43.3666,-2.5007,92.53,73,2,8.43,ES,Sat Aug 19 11:14:53 2023
337,balykchy,42.4557,76.1861,67.8,63,1,4.0,KG,Sat Aug 19 11:14:53 2023
338,taiynsha,53.8478,69.7639,70.48,61,81,8.86,KZ,Sat Aug 19 11:14:54 2023
339,revda,56.801,59.9303,57.04,90,98,4.79,RU,Sat Aug 19 11:14:54 2023
340,jember,-8.166,113.7032,70.48,96,68,0.56,ID,Sat Aug 19 11:14:54 2023
341,bemidji,47.4736,-94.8803,79.56,70,0,0.0,US,Sat Aug 19 11:14:55 2023
342,wakkanai,45.4094,141.6739,72.09,97,36,9.91,JP,Sat Aug 19 11:14:55 2023
343,santa vitoria do palmar,-33.5189,-53.3681,56.16,40,0,16.64,BR,Sat Aug 19 11:14:56 2023
344,ponta delgada,37.7333,-25.6667,77.72,69,20,6.91,PT,Sat Aug 19 11:14:56 2023
345,beloyarskiy,63.7119,66.6722,51.6,64,53,12.35,RU,Sat Aug 19 11:11:17 2023
346,nadi,-17.8,177.4167,71.6,88,20,3.44,FJ,Sat Aug 19 11:14:56 2023
347,fuerte olimpo,-21.0415,-57.8738,80.76,50,20,5.19,PY,Sat Aug 19 11:14:56 2023
348,slavgorod,52.9978,78.6449,66.79,58,53,8.16,RU,Sat Aug 19 11:14:57 2023
349,tughyl,47.7252,84.2063,68.61,44,0,8.5,KZ,Sat Aug 19 11:14:57 2023
350,xuanzhou,30.9525,118.7553,75.58,93,29,5.82,CN,Sat Aug 19 11:14:58 2023
351,mentekab,3.4854,102.3484,77.95,95,84,1.01,MY,Sat Aug 19 11:14:59 2023
352,pocatello,42.8713,-112.4455,78.71,35,20,11.01,US,Sat Aug 19 11:12:26 2023
353,tocopilla,-22.092,-70.1979,71.06,56,8,2.37,CL,Sat Aug 19 11:14:59 2023
354,dhidhdhoo,6.8833,73.1,82.94,75,79,14.0,MV,Sat Aug 19 11:14:55 2023
355,kununurra,-15.7667,128.7333,78.78,24,1,10.36,AU,Sat Aug 19 11:10:45 2023
356,nizhneudinsk,54.9076,99.0276,49.59,90,89,4.5,RU,Sat Aug 19 11:15:00 2023
357,bartica,6.4,-58.6167,89.92,88,97,3.53,GY,Sat Aug 19 11:15:01 2023
358,shiprock,36.7855,-108.687,83.21,36,8,9.8,US,Sat Aug 19 11:15:01 2023
359,fort bragg,35.139,-79.006,85.64,49,20,10.36,US,Sat Aug 19 11:15:02 2023
360,poronaysk,49.2167,143.1167,64.9,96,1,8.79,RU,Sat Aug 19 11:15:03 2023
361,nikolayevsk-on-amure,53.1406,140.73,67.42,98,100,3.8,RU,Sat Aug 19 11:15:04 2023
362,kapuskasing,49.4169,-82.4331,71.69,56,75,10.36,CA,Sat Aug 19 11:15:05 2023
363,tsagan aman,47.5639,46.7218,88.38,18,8,8.81,RU,Sat Aug 19 11:15:06 2023
364,boksitogorsk,59.474,33.8485,60.6,87,100,8.88,RU,Sat Aug 19 11:15:06 2023
365,selfoss,63.9331,-20.9971,67.05,57,100,1.05,IS,Sat Aug 19 11:15:07 2023
366,kiunga,-6.1219,141.2906,73.42,80,100,4.97,PG,Sat Aug 19 11:15:07 2023
367,mananara,-16.1667,49.7667,69.17,90,4,3.18,MG,Sat Aug 19 11:15:08 2023
368,talcahuano,-36.7167,-73.1167,56.88,100,100,11.5,CL,Sat Aug 19 11:15:09 2023
369,barranca,-10.75,-77.7667,70.27,64,72,7.47,PE,Sat Aug 19 11:10:36 2023
370,mashhad,36.297,59.6062,82.54,30,0,0.0,IR,Sat Aug 19 11:15:09 2023
371,soio,-6.1349,12.3689,73.63,75,72,9.82,AO,Sat Aug 19 11:15:10 2023
372,pandan,14.0453,124.1694,80.11,84,14,4.76,PH,Sat Aug 19 11:15:10 2023
373,ban chang,12.7254,101.0553,85.48,84,20,4.61,TH,Sat Aug 19 11:15:11 2023
374,campos altos,-19.6961,-46.1714,87.08,21,3,9.6,BR,Sat Aug 19 11:15:11 2023
375,isabela,6.7085,121.9711,78.46,85,100,3.02,PH,Sat Aug 19 11:15:11 2023
376,shasta lake,40.6804,-122.3708,82.35,51,68,1.57,US,Sat Aug 19 11:15:12 2023
377,korsakov,46.6328,142.7813,67.84,97,19,6.62,RU,Sat Aug 19 11:15:12 2023
378,port hedland,-20.3167,118.5667,71.65,35,0,8.05,AU,Sat Aug 19 11:15:13 2023
379,sinop,41.7711,34.8709,73.83,63,0,3.83,TR,Sat Aug 19 11:10:27 2023
380,vernal,40.4555,-109.5287,69.66,75,40,4.61,US,Sat Aug 19 11:15:13 2023
381,la passe,45.5549,-0.8967,89.83,52,9,15.3,FR,Sat Aug 19 11:15:14 2023
382,bairnsdale,-37.8333,147.6167,55.08,71,100,7.96,AU,Sat Aug 19 11:15:14 2023
383,pyoksong-up,38.0475,125.5567,74.5,90,6,3.11,KP,Sat Aug 19 11:15:15 2023
384,dubbo,-32.25,148.6167,51.93,76,100,4.61,AU,Sat Aug 19 11:15:15 2023
385,lady frere,-31.7031,27.2329,61.09,23,62,6.31,ZA,Sat Aug 19 11:15:15 2023
386,st. john's,47.5649,-52.7093,63.28,90,75,24.16,CA,Sat Aug 19 11:15:16 2023
387,ouarzazat,30.9189,-6.8934,98.89,9,40,10.36,MA,Sat Aug 19 11:15:17 2023
388,prince rupert,54.3161,-130.3201,53.29,98,100,4.61,CA,Sat Aug 19 11:15:18 2023
389,vilyuysk,63.7553,121.6247,60.37,69,100,6.58,RU,Sat Aug 19 11:15:19 2023
390,woolgoolga,-30.1106,153.2007,47.05,58,0,4.25,AU,Sat Aug 19 11:15:20 2023
391,yambio,4.5721,28.3955,72.72,85,66,0.31,SS,Sat Aug 19 11:15:20 2023
392,chernyanka,50.9409,37.8069,82.53,44,0,3.44,RU,Sat Aug 19 11:15:21 2023
393,mokhsogollokh,61.4681,128.9203,59.0,97,100,9.44,RU,Sat Aug 19 11:12:25 2023
394,yarmouth,41.7057,-70.2286,77.05,64,0,18.41,US,Sat Aug 19 11:15:22 2023
395,san patricio,28.017,-97.5169,94.95,48,6,7.25,US,Sat Aug 19 11:15:23 2023
396,mbanza kongo,-6.267,14.2401,90.16,31,69,6.76,AO,Sat Aug 19 11:15:23 2023
397,urucui,-7.2294,-44.5561,98.44,25,1,7.76,BR,Sat Aug 19 11:15:24 2023
398,tura,25.5198,90.2201,76.84,91,100,4.18,IN,Sat Aug 19 11:15:25 2023
399,nurmes,63.5421,29.1397,62.28,63,6,2.13,FI,Sat Aug 19 11:15:26 2023
400,sakon nakhon,17.3333,103.8333,83.52,72,98,3.83,TH,Sat Aug 19 11:15:26 2023
401,fisterra,42.9049,-9.2629,77.76,78,5,7.45,ES,Sat Aug 19 11:15:27 2023
402,tezu,27.9167,96.1667,76.93,98,99,2.3,IN,Sat Aug 19 11:12:38 2023
403,mount isa,-20.7333,139.5,46.17,57,0,1.14,AU,Sat Aug 19 11:15:27 2023
404,diego martin,10.7005,-61.5342,82.49,91,100,1.88,TT,Sat Aug 19 11:15:27 2023
405,okha,53.5739,142.9478,60.71,99,100,14.74,RU,Sat Aug 19 11:15:28 2023
406,paka,4.6374,103.4368,80.53,94,78,0.0,MY,Sat Aug 19 11:15:28 2023
407,tshikapa,-6.4167,20.8,93.38,28,100,7.2,CD,Sat Aug 19 11:15:29 2023
408,taveta,-3.3963,37.6736,79.03,33,38,7.45,KE,Sat Aug 19 11:15:29 2023
409,guiuan,11.0333,125.7247,81.34,76,93,2.75,PH,Sat Aug 19 11:15:30 2023
410,natagaima,3.6206,-75.0941,88.48,57,92,3.69,CO,Sat Aug 19 11:15:30 2023
411,myeik,12.4333,98.6,79.92,86,10,6.02,MM,Sat Aug 19 11:15:30 2023
412,tateyama,34.9833,139.8667,79.56,86,0,2.77,JP,Sat Aug 19 11:15:31 2023
413,harper,4.375,-7.7169,80.71,74,46,8.93,LR,Sat Aug 19 11:15:31 2023
414,colon,9.3592,-79.9014,78.91,80,98,8.01,PA,Sat Aug 19 11:15:32 2023
415,baiao,-2.7906,-49.6717,98.42,31,5,5.01,BR,Sat Aug 19 11:15:32 2023
416,parbhani,19.2667,76.7833,68.2,94,100,19.04,IN,Sat Aug 19 11:15:33 2023
417,chiang klang,19.2938,100.8617,75.87,98,99,1.12,TH,Sat Aug 19 11:15:33 2023
418,narrabri,-30.3167,149.7833,49.51,74,0,1.01,AU,Sat Aug 19 11:15:34 2023
419,el calafate,-50.3408,-72.2768,30.31,80,97,0.54,AR,Sat Aug 19 11:15:35 2023
420,sao jose dos pinhais,-25.5347,-49.2064,62.69,68,75,9.22,BR,Sat Aug 19 11:15:35 2023
421,shaffa,10.5067,12.3332,83.5,62,100,3.85,NG,Sat Aug 19 11:15:35 2023
422,amahai,-3.3333,128.9167,76.14,88,75,9.33,ID,Sat Aug 19 11:15:36 2023
423,naze,28.3667,129.4833,77.92,91,68,6.53,JP,Sat Aug 19 11:15:36 2023
424,nalut,30.3333,10.85,98.6,12,0,10.94,LY,Sat Aug 19 11:15:36 2023
425,vinga,46.0167,21.2,90.84,45,0,6.91,RO,Sat Aug 19 11:15:37 2023
426,guayaramerin,-10.8368,-65.3614,102.9,25,21,2.66,BO,Sat Aug 19 11:15:38 2023
427,vilyuchinsk,52.9306,158.4028,57.47,90,18,8.75,RU,Sat Aug 19 11:15:38 2023
428,kargasok,59.0556,80.8572,52.11,67,37,6.55,RU,Sat Aug 19 11:15:38 2023
429,nefta,33.8731,7.8777,111.45,12,0,8.57,TN,Sat Aug 19 11:15:39 2023
430,manadhoo,5.7667,73.3833,82.74,76,90,14.72,MV,Sat Aug 19 11:15:39 2023
431,kourou,5.1552,-52.6478,91.45,59,34,12.5,GF,Sat Aug 19 11:15:40 2023
432,san fernando de apure,7.8878,-67.4724,86.81,68,84,5.5,VE,Sat Aug 19 11:15:40 2023
433,dunedin,-45.8742,170.5036,49.8,70,100,1.01,NZ,Sat Aug 19 11:15:40 2023
434,ngama,11.7833,17.1667,83.98,66,100,1.81,TD,Sat Aug 19 11:15:41 2023
435,geraldton,-28.7667,114.6,46.81,93,0,4.61,AU,Sat Aug 19 11:15:41 2023
436,calabozo,8.9242,-67.4293,86.25,72,100,2.13,VE,Sat Aug 19 11:15:41 2023
437,paracuru,-3.41,-39.0306,80.11,63,64,14.5,BR,Sat Aug 19 11:15:42 2023
438,jiangyou,31.7667,104.7167,76.05,75,100,5.35,CN,Sat Aug 19 11:15:42 2023
439,kura,11.7697,8.4303,89.6,47,74,6.53,NG,Sat Aug 19 11:15:42 2023
440,taybad,34.74,60.7756,86.7,13,0,15.86,IR,Sat Aug 19 11:15:43 2023
441,schwaz,47.3391,11.7336,86.5,31,26,4.79,AT,Sat Aug 19 11:15:44 2023
442,salalah,17.0151,54.0924,78.89,94,100,6.91,OM,Sat Aug 19 11:15:45 2023
443,paita,-5.0892,-81.1144,73.67,69,13,10.69,PE,Sat Aug 19 11:15:45 2023
444,cabedelo,-6.9811,-34.8339,77.67,79,50,11.77,BR,Sat Aug 19 11:15:46 2023
445,pyriatyn,50.2445,32.5107,88.27,31,56,10.89,UA,Sat Aug 19 11:15:46 2023
446,afaahiti,-17.75,-149.2833,73.27,71,76,18.12,PF,Sat Aug 19 11:15:46 2023
447,nguru,12.8791,10.4526,96.89,31,97,3.42,NG,Sat Aug 19 11:15:47 2023
448,dean funes,-30.4204,-64.3498,63.07,37,2,14.79,AR,Sat Aug 19 11:11:58 2023
449,ancud,-41.8697,-73.8203,44.31,94,100,7.92,CL,Sat Aug 19 11:15:48 2023
450,yarovoye,52.9273,78.58,67.89,55,56,10.67,RU,Sat Aug 19 11:15:48 2023
451,turpan,42.9333,89.1667,92.71,15,24,5.32,CN,Sat Aug 19 11:15:49 2023
452,cukai,4.25,103.4167,80.55,91,65,6.4,MY,Sat Aug 19 11:15:49 2023
453,cill airne,52.05,-9.5167,66.25,77,75,18.41,IE,Sat Aug 19 11:15:50 2023
454,laguna,38.421,-121.4238,81.97,70,0,4.61,US,Sat Aug 19 11:15:50 2023
455,adjumani,3.3779,31.7909,80.01,49,32,3.74,UG,Sat Aug 19 11:15:50 2023
456,massawa,15.6097,39.45,95.22,55,92,4.16,ER,Sat Aug 19 11:15:51 2023
457,dolinsk,47.35,142.8,68.79,95,28,8.61,RU,Sat Aug 19 11:15:51 2023
458,moree,-29.4667,149.85,44.67,76,0,7.11,AU,Sat Aug 19 11:15:51 2023
459,bamboo flat,11.7,92.7167,80.69,89,40,4.61,IN,Sat Aug 19 11:15:52 2023
460,griffith,41.5284,-87.4237,76.08,69,0,11.5,US,Sat Aug 19 11:15:52 2023
461,mont-dore,-22.2833,166.5833,66.99,99,0,10.38,NC,Sat Aug 19 11:15:52 2023
462,ta`u,-14.2336,-169.5144,81.61,66,100,15.88,AS,Sat Aug 19 11:15:53 2023
463,barabinsk,55.3571,78.357,60.76,96,76,6.29,RU,Sat Aug 19 11:11:59 2023
464,ban houakhoua,20.2453,100.4547,76.86,96,100,0.92,LA,Sat Aug 19 11:15:54 2023
465,moab,38.5733,-109.5498,82.49,58,41,2.13,US,Sat Aug 19 11:15:13 2023
466,le port,-20.9373,55.2919,71.6,97,32,1.34,RE,Sat Aug 19 11:15:55 2023
467,shenjiamen,29.9576,122.298,81.09,85,70,10.45,CN,Sat Aug 19 11:15:55 2023
468,east london,-33.0153,27.9116,61.74,77,0,10.36,ZA,Sat Aug 19 11:15:56 2023
469,vanimo,-2.6741,141.3028,76.15,90,100,3.36,PG,Sat Aug 19 11:15:57 2023
470,daru,-9.0763,143.2092,75.43,68,71,17.22,PG,Sat Aug 19 11:15:58 2023
471,luumaki,60.9262,27.5814,61.32,63,100,4.65,FI,Sat Aug 19 11:15:59 2023
472,zhangjiagang,31.865,120.5389,81.91,96,3,7.18,CN,Sat Aug 19 11:15:59 2023
473,jacobabad,28.281,68.4388,98.13,18,1,9.37,PK,Sat Aug 19 11:16:00 2023
474,chipiona,36.7366,-6.437,100.58,43,0,14.97,ES,Sat Aug 19 11:16:00 2023
475,sabha,27.0377,14.4283,97.27,13,0,13.04,LY,Sat Aug 19 11:16:00 2023
476,ust-tsilma,65.441,52.1498,47.8,95,100,7.11,RU,Sat Aug 19 11:16:01 2023
477,tsiombe,-25.3,45.4833,66.07,75,8,9.35,MG,Sat Aug 19 11:16:02 2023
478,bengkulu,-3.8004,102.2655,75.16,92,96,5.79,ID,Sat Aug 19 11:16:03 2023
479,deder,9.3167,41.45,66.63,54,75,5.21,ET,Sat Aug 19 11:16:05 2023
480,delacombe,-37.5891,143.8147,48.74,91,100,3.0,AU,Sat Aug 19 11:13:18 2023
481,nagqu,31.5,92.0,43.74,92,100,11.18,CN,Sat Aug 19 11:16:06 2023
482,novaya igirma,57.1334,103.9112,51.58,97,100,11.27,RU,Sat Aug 19 11:16:06 2023
483,farafangana,-22.8167,47.8333,72.37,90,82,9.57,MG,Sat Aug 19 11:16:07 2023
484,cherdyn',60.403,56.4787,52.2,64,13,4.27,RU,Sat Aug 19 11:16:07 2023
485,papao,-17.75,-149.55,74.88,70,55,17.07,PF,Sat Aug 19 11:15:33 2023
486,zag,46.9441,99.165,48.0,51,3,4.76,MN,Sat Aug 19 11:16:08 2023
487,luderitz,-26.6481,15.1594,59.94,64,41,13.65,NA,Sat Aug 19 11:16:08 2023
488,sa pa,22.3402,103.8441,64.96,94,100,0.54,VN,Sat Aug 19 11:16:09 2023
489,san pedro pochutla,15.7333,-96.4667,85.71,59,82,4.03,MX,Sat Aug 19 11:16:09 2023
490,west plains,36.7281,-91.8524,82.22,67,0,8.05,US,Sat Aug 19 11:11:54 2023
491,alice springs,-23.7,133.8833,55.22,53,0,57.0,AU,Sat Aug 19 11:16:10 2023
492,freetown,8.484,-13.2299,75.45,97,100,11.03,SL,Sat Aug 19 11:16:10 2023
493,paulsboro,39.8304,-75.2405,77.9,49,40,11.5,US,Sat Aug 19 11:16:11 2023
494,berdigestyakh,62.0989,126.6992,57.02,95,100,8.14,RU,Sat Aug 19 11:16:11 2023
495,lorengau,-2.0226,147.2712,79.74,85,99,12.37,PG,Sat Aug 19 11:16:12 2023
496,alvaraes,-3.2208,-64.8042,93.07,34,27,4.03,BR,Sat Aug 19 11:16:12 2023
497,usinsk,65.9939,57.5281,49.42,84,100,14.36,RU,Sat Aug 19 11:16:12 2023
498,tsimasham,27.0989,89.536,60.64,98,100,0.27,BT,Sat Aug 19 11:16:13 2023
499,kismayo,-0.3582,42.5454,76.89,84,100,14.67,SO,Sat Aug 19 11:16:13 2023
500,loreto,22.2667,-101.9667,69.49,57,93,5.12,MX,Sat Aug 19 11:13:32 2023
501,debark',13.1561,37.8981,54.5,84,51,2.8,ET,Sat Aug 19 11:16:13 2023
502,noosa heads,-26.3833,153.15,52.11,48,0,7.9,AU,Sat Aug 19 11:16:14 2023
503,mildura,-34.2,142.15,54.75,82,60,5.44,AU,Sat Aug 19 11:16:14 2023
504,gereida,11.2811,25.1414,90.61,47,44,5.59,SD,Sat Aug 19 11:16:14 2023
505,hobyo,5.3505,48.5268,78.4,79,65,24.96,SO,Sat Aug 19 11:16:15 2023
506,conduaga,8.862,117.4893,77.9,84,98,3.67,PH,Sat Aug 19 11:16:15 2023
507,coos bay,43.3665,-124.2179,61.23,82,0,8.05,US,Sat Aug 19 11:12:14 2023
508,adrar,20.5022,-10.0711,94.1,32,96,10.47,MR,Sat Aug 19 11:16:16 2023
509,uychi,41.0807,71.9233,77.04,18,0,3.83,UZ,Sat Aug 19 11:16:16 2023
510,hounde,11.5,-3.5167,84.13,64,97,5.57,BF,Sat Aug 19 11:16:17 2023
511,zambezi,-13.5432,23.1047,85.33,14,0,4.65,ZM,Sat Aug 19 11:16:17 2023
512,siwa oasis,29.2041,25.5195,97.23,20,5,9.08,EG,Sat Aug 19 11:16:18 2023
513,ko pha ngan,9.7578,100.0291,78.51,76,66,17.78,TH,Sat Aug 19 11:16:18 2023
514,sitia,35.2,26.0986,83.98,75,3,6.78,GR,Sat Aug 19 11:16:18 2023
515,amstetten,48.1229,14.8721,85.78,60,21,1.21,AT,Sat Aug 19 11:16:19 2023
516,ugoofaaru,5.6667,73.0,82.9,75,85,14.03,MV,Sat Aug 19 11:16:19 2023
517,port macquarie,-31.4333,152.9167,44.89,72,0,5.82,AU,Sat Aug 19 11:16:19 2023
518,nizamabad,18.6667,78.1167,70.45,96,100,15.19,IN,Sat Aug 19 11:16:20 2023
519,khandyga,62.6667,135.6,59.2,95,100,0.31,RU,Sat Aug 19 11:16:20 2023
520,puerto penasco,31.3167,-113.5333,84.9,77,99,15.99,MX,Sat Aug 19 11:16:20 2023
521,valparaiso,-33.0393,-71.6273,61.0,93,75,9.22,CL,Sat Aug 19 11:16:21 2023
522,san luis de la loma,17.2706,-100.8939,86.34,60,100,3.8,MX,Sat Aug 19 11:16:21 2023
523,uva,56.9908,52.1852,58.78,59,10,4.94,RU,Sat Aug 19 11:16:22 2023
524,shihezi,44.3,86.0333,79.38,24,25,4.25,CN,Sat Aug 19 11:16:22 2023
525,sanctuary point,-35.1114,150.629,56.75,76,0,11.34,AU,Sat Aug 19 11:16:22 2023
526,karwar,14.8,74.1333,77.4,85,100,9.08,IN,Sat Aug 19 11:16:23 2023
527,misawa,40.6836,141.3597,78.6,100,100,2.3,JP,Sat Aug 19 11:13:20 2023
528,diego de almagro,-26.3667,-70.05,78.13,9,37,4.32,CL,Sat Aug 19 11:16:24 2023
529,guerrero negro,27.9769,-114.0611,69.44,85,100,10.65,MX,Sat Aug 19 11:16:24 2023
530,taoudenni,22.6783,-3.9836,109.09,15,93,14.61,ML,Sat Aug 19 11:16:24 2023
531,n'dalatando,-9.2978,14.9116,94.32,18,79,7.47,AO,Sat Aug 19 11:16:25 2023
532,oyama,36.3,139.8,89.58,74,15,2.82,JP,Sat Aug 19 11:16:25 2023
533,najran,17.4924,44.1277,95.65,18,88,14.56,SA,Sat Aug 19 11:16:26 2023
534,angra do heroismo,38.65,-27.2167,81.21,76,40,8.01,PT,Sat Aug 19 11:16:26 2023
535,wuwei,37.9281,102.6414,72.81,33,15,4.74,CN,Sat Aug 19 11:16:27 2023
536,likasi,-10.9814,26.7333,77.94,24,10,2.64,CD,Sat Aug 19 11:16:27 2023
537,lycksele,64.5954,18.6735,71.47,43,20,5.75,SE,Sat Aug 19 11:16:27 2023
538,sao vicente,-23.9631,-46.3919,84.38,83,76,14.0,BR,Sat Aug 19 11:12:46 2023
539,island harbour,50.724,-1.2758,72.3,82,6,5.99,GB,Sat Aug 19 11:16:28 2023
540,natal,-5.795,-35.2094,77.65,94,75,5.75,BR,Sat Aug 19 11:13:38 2023
541,quezon,7.7303,125.0989,73.15,98,100,1.5,PH,Sat Aug 19 11:16:28 2023
542,suicheng,33.8963,117.9331,75.34,96,19,6.55,CN,Sat Aug 19 11:16:29 2023
543,nogliki,51.8333,143.1667,62.69,99,87,4.92,RU,Sat Aug 19 11:16:29 2023
544,saudarkrokur,65.7461,-19.6394,55.35,77,100,5.55,IS,Sat Aug 19 11:16:29 2023
545,priozersk,61.0393,30.1291,61.95,94,100,2.08,RU,Sat Aug 19 11:16:29 2023
546,ola,59.5833,151.2833,61.14,87,100,1.43,RU,Sat Aug 19 11:16:30 2023
547,nova vicosa,-17.8919,-39.3719,81.64,61,22,15.43,BR,Sat Aug 19 11:14:17 2023
548,ghat,24.9647,10.1728,101.07,13,99,9.37,LY,Sat Aug 19 11:16:31 2023
549,banda aceh,5.5577,95.3222,80.01,82,24,6.29,ID,Sat Aug 19 11:16:31 2023
550,kokopo,-4.352,152.2633,76.87,89,83,13.85,PG,Sat Aug 19 11:16:31 2023
551,bayanhongor,46.7167,100.1167,46.2,34,35,1.43,MN,Sat Aug 19 11:16:31 2023
552,tibati,6.4667,12.6333,75.43,81,98,2.08,CM,Sat Aug 19 11:16:32 2023
553,la'ie,21.6477,-157.9253,77.11,78,6,11.14,US,Sat Aug 19 11:16:32 2023
554,petrozavodsk,61.7849,34.3469,60.26,67,100,2.24,RU,Sat Aug 19 11:15:36 2023
555,bawku,11.0616,-0.2417,86.09,60,91,5.79,GH,Sat Aug 19 11:16:33 2023
556,merizo village,13.2658,144.6691,81.16,97,81,7.18,GU,Sat Aug 19 11:16:33 2023
557,higuera de zaragoza,25.95,-109.2833,80.53,67,99,11.1,MX,Sat Aug 19 11:16:33 2023
558,ormara,25.2088,64.6357,80.01,81,90,16.02,PK,Sat Aug 19 11:16:34 2023
559,codrington,-38.2667,141.9667,54.46,81,100,11.56,AU,Sat Aug 19 11:16:34 2023
560,kupino,54.3663,77.2981,64.99,90,64,8.3,RU,Sat Aug 19 11:16:35 2023
561,ebon,4.582,168.6964,82.71,73,45,3.11,MH,Sat Aug 19 11:16:35 2023
562,sitangkai,4.6628,119.3928,83.12,76,95,10.18,PH,Sat Aug 19 11:16:35 2023
563,kitimat,54.0524,-128.6534,61.92,69,2,3.0,CA,Sat Aug 19 11:16:36 2023
564,rikaze,29.25,88.8833,66.09,43,97,4.92,CN,Sat Aug 19 11:16:37 2023
565,carnarvon,-24.8667,113.6333,65.48,65,0,14.5,AU,Sat Aug 19 11:16:37 2023
566,jamaame,0.0697,42.745,76.32,82,97,11.99,SO,Sat Aug 19 11:16:37 2023
567,las heras,-46.5419,-68.9359,37.83,73,61,2.84,AR,Sat Aug 19 11:16:37 2023
568,whitburn,54.9533,-1.3686,73.15,65,13,14.92,GB,Sat Aug 19 11:14:32 2023
569,ati,13.2154,18.3353,94.6,36,53,3.06,TD,Sat Aug 19 11:16:38 2023
570,laojunmiao,39.8333,97.7333,70.43,19,5,8.5,CN,Sat Aug 19 11:16:39 2023
571,coquitlam,49.283,-122.7526,65.39,69,0,1.14,CA,Sat Aug 19 11:13:09 2023
572,alamosa,37.4695,-105.87,69.78,43,0,3.44,US,Sat Aug 19 11:16:39 2023
573,urucara,-2.5364,-57.76,101.37,27,40,5.99,BR,Sat Aug 19 11:16:39 2023
574,katsuura,35.1333,140.3,78.93,89,0,2.42,JP,Sat Aug 19 11:16:40 2023
575,toliara,-23.35,43.6667,66.92,78,5,6.69,MG,Sat Aug 19 11:16:40 2023
576,cambria,35.5641,-121.0808,72.25,69,0,2.73,US,Sat Aug 19 11:13:52 2023
577,mikhaylovka,50.06,43.2379,88.79,23,35,5.01,RU,Sat Aug 19 11:16:41 2023
578,al hufuf,25.3646,49.5653,106.14,16,0,11.5,SA,Sat Aug 19 11:16:41 2023
